{"name":"Wa-Pai-Shone-Tribute to Washoe Paiute &amp; Shoshone","artist_first_name":"Peter","artist_last_name":"Wolf Toth","budget":25000,"city":"Reno","location":[-119.835284,39.519159],"state":"NV","street":"1900 Idlewild Dr","year":"1986","type":"Sculpture"}
{"name":"Road Totems of Fish","artist_first_name":"Roberto","artist_last_name":"Salas","budget":5000,"city":"Reno","location":[-119.78046064587483,39.48817979305727],"state":"NV","street":"3905 Neil Road","year":"1993","type":"Sculpture"}
{"name":"Collaborative Design of Parking Gallery Art Elements","artist_first_name":"Vicki","artist_last_name":"Scurri","budget":33000,"city":"Reno","location":[-119.81163,39.52616],"state":"NV","street":"Corner of First and Center Streets","year":"1993","type":"Architectural Design Elements"}
{"name":"\"In Search of Equilibrium\"","artist_first_name":"Mikel","artist_last_name":"Lerxundi","budget":10000,"city":"Reno","location":[-119.808878461,39.5222124685],"state":"NV","street":"190 E. Liberty Street","year":"1994","type":"Sculpture"}
{"name":"Idlewild Kiddyland Arch","artist_first_name":"Lisa","artist_last_name":"Kaslow","budget":12975,"city":"Reno","location":[-119.835284,39.519159],"state":"NV","street":"1900 Idlewild Dr","year":"1996","type":"Lions Arch"}
{"name":"Tribute to Native Americans - Paiute Tribe","artist_first_name":"Chris","artist_last_name":"Atcheson","budget":17000,"city":"Reno","location":[-119.84789570152144,39.51934303261453],"state":"NV","street":"4560 Summit Ridge Drive","year":"2000","type":"Sculpture"}
{"name":"Songbirds","artist_first_name":"Pam","artist_last_name":"Parenti","budget":17000,"city":"Reno","location":[-119.78217036626548,39.56085538477623],"state":"NV","street":"2505 Melody Ln","year":"2000","type":"Art Bench"}
{"name":"Playground Sculptures","artist_first_name":"Mary","artist_last_name":"Fuller","budget":16000,"city":"Reno","location":[-119.87424485439985,39.52408086264991],"state":"NV","street":"1355 Rainbow Ridge Road","year":"2001","type":"Sculpture"}
{"name":"\u201cGallop-a-Pace\u201d Sculpture","artist_first_name":"Charles","artist_last_name":"Ginnever","budget":225000,"city":"Reno","location":[-119.81911124817984,39.523931419494915],"state":"NV","street":"10 Ralston Street","year":"2001","type":"Sculpture"}
{"name":"Granite Sculpture and Kiosk","artist_first_name":"Chris","artist_last_name":"Atcheson","budget":18000,"city":"Reno","location":[-119.818947,39.538535],"state":"NV","street":"1101 Sierra Street","year":"2002","type":"Sculpture"}
{"name":"Swimming Bench","artist_first_name":"Marcella, Megan","artist_last_name":"Yeates","budget":16500,"city":"Reno","location":[-119.8919050183323,39.53318953635294],"state":"NV","street":"6555 Valley Wood Dr.","year":"2002","type":"Art Bench"}
{"name":"Mira Loma Skate Park Sculpture","artist_first_name":"Chris","artist_last_name":"Atcheson","budget":4000,"city":"Reno","location":[-119.747985,39.49254],"state":"NV","street":"3000 S. McCarran Blvd","year":"2003","type":"Sculpure"}
{"name":"Mira Loma Skate Park Sculpture","artist_first_name":"Chris","artist_last_name":"Atcheson","budget":4000,"city":"Reno","location":[-119.748141,39.49253],"state":"NV","street":"3001 S. McCarran Blvd","year":"2003","type":"Sculpure"}
{"name":"Mira Loma Skate Park Sculpture","artist_first_name":"Chris","artist_last_name":"Atcheson","budget":4000,"city":"Reno","location":[-119.74779230365132,39.49254090814294],"state":"NV","street":"3002 S. McCarran Blvd","year":"2003","type":"Sculpure"}
{"name":"Mira Loma Skate Park Sculpture","artist_first_name":"Chris","artist_last_name":"Atcheson","budget":4000,"city":"Reno","location":[-119.74830767189816,39.49253244840594],"state":"NV","street":"3003 S. McCarran Blvd","year":"2003","type":"Sculpure"}
{"name":"Mira Loma Skate Park Sculpture","artist_first_name":"Chris","artist_last_name":"Atcheson","budget":4000,"city":"Reno","location":[-119.74779200073797,39.49249515056719],"state":"NV","street":"3004 S. McCarran Blvd","year":"2003","type":"Sculpure"}
{"name":"\"Grimes Point Rock\"","artist_first_name":"Vic","artist_last_name":"Chevillon","budget":5000,"city":"Reno","location":[-119.81545437287191,39.525055649152264],"state":"NV","street":"200 W. First St","year":"2005","type":"Sculpture"}
{"name":"\"Buffalo Mother\"","artist_first_name":"Vic","artist_last_name":"Chevillon","budget":5000,"city":"Reno","location":[-119.81545437287191,39.525055649152264],"state":"NV","street":"200 W. First St","year":"2005","type":"Sculpture"}
{"name":"\"Mountaintop\"","artist_first_name":"Brad","artist_last_name":"Rude","budget":25000,"city":"Reno","location":[-119.82452,39.521702],"state":"NV","street":"925 Riverside Dr","year":"2005","type":"Sculpture"}
{"name":"\"Veletas\"","artist_first_name":"Christie","artist_last_name":"Beniston","budget":18000,"city":"Reno","location":[-119.886035,39.542328],"state":"NV","street":"5950 Las Brisas","year":"2006","type":"Sculpture"}
{"name":"\"Aspen Grove\"","artist_first_name":"Troy","artist_last_name":"Corliss","budget":52580,"city":"Reno","location":[-119.89065462806653,39.54257981963477],"state":"NV","street":"2525 Robb Drive","year":"2006","type":"Sculpture"}
{"name":"\"Svirgola\"","artist_first_name":"Panziera and Garofalo","artist_last_name":"Dominic and Daniela","budget":12000,"city":"Reno","location":[-119.73784,39.43432],"state":"NV","street":"1595 Wilbur May Parkway","year":"2006","type":"Art Bench"}
{"name":"\"Society\"","artist_first_name":"Panziera and Garofalo","artist_last_name":"Dominic and Daniela","budget":113000,"city":"Reno","location":[-119.813929,39.523982],"state":"NV","street":"1 South Sierra St","year":"2006","type":"Mosaic Floor"}
{"name":"\"Rose Waterfall\"","artist_first_name":"Eileen","artist_last_name":"Gay","budget":12000,"city":"Reno","location":[-119.835284,39.519159],"state":"NV","street":"1900 Idlewild Drive","year":"2006","type":"<string/>"}
{"name":"\"Call of the Panther\"","artist_first_name":"Eileen","artist_last_name":"Gay","budget":18943,"city":"Reno","location":[-119.8184,39.58848],"state":"NV","street":"850 Link Lane","year":"2007","type":"Sculpture"}
{"name":"\"You should have been here\"","artist_first_name":"Cork","artist_last_name":"Marcheschi","budget":97700,"city":"Reno","location":[-119.81258910868468,39.52538508904324],"state":"NV","street":"10 N. Virginia St.","year":"2006","type":"Sculpture"}
{"name":"\"Community, Diversity and Independence\"","artist_first_name":"Benjamin","artist_last_name":"Victor","budget":160000,"city":"Reno","location":[-119.80324,39.52944],"state":"NV","street":"Wells Ave","year":"2006","type":"Sculptures"}
{"name":"\"Waltz Forms\"","artist_first_name":"Cork","artist_last_name":"Marcheschi","budget":365000,"city":"Reno","location":[-119.81309434370843,39.53012310608615],"state":"NV","street":"401 N. Center St","year":"2007","type":"Lighting Sculpture"}
{"name":"Tree of Life Gates","artist_first_name":"Tom","artist_last_name":"Turman","budget":12000,"city":"Reno","location":[-119.835284,39.519159],"state":"NV","street":"1900 Idlewild Drive","year":"2007","type":"Security Gates"}
{"name":"Wind Dancers","artist_first_name":"Dave","artist_last_name":"Boyer","budget":15000,"city":"Reno","location":[-119.73784,39.43432],"state":"NV","street":"9675 Wilbur May Parkway","year":"2008","type":"Sculpture"}
{"name":"Dog Bike Rack","artist_first_name":"Tommy","artist_last_name":"Shearer","budget":650,"city":"Reno","location":[-119.82452,39.521702],"state":"NV","street":"925 Riverside Dr","year":"2008","type":"Bikerack"}
{"name":"Dog Bike Rack","artist_first_name":"Tommy","artist_last_name":"Shearer","budget":650,"city":"Reno","location":[-119.808878461,39.5222124685],"state":"NV","street":"190 East Liberty St","year":"2008","type":"Bikerack"}
{"name":"Cog Bike Rack","artist_first_name":"Tommy","artist_last_name":"Shearer","budget":650,"city":"Reno","location":[-119.81545437287191,39.525055649152264],"state":"NV","street":"200 W. First St","year":"2008","type":"Bikerack"}
{"name":"Easle Bike Rack","artist_first_name":"Tommy","artist_last_name":"Shearer","budget":650,"city":"Reno","location":[-119.81294,39.5259],"state":"NV","street":"1st St and Virginia St","year":"2008","type":"Bikerack"}
{"name":"Easle Bike Rack","artist_first_name":"Tommy","artist_last_name":"Shearer","budget":650,"city":"Reno","location":[-119.81867787924064,39.52327774919935],"state":"NV","street":"400 Island Avenue","year":"2008","type":"Bikerack"}
{"name":"YAW Train Bike Rack","artist_first_name":"<string/>","artist_last_name":"YAW","budget":2500,"city":"Reno","location":[-119.81327,39.5269],"state":"NV","street":"2nd St and Virginia St","year":"2008","type":"Bikerack"}
{"name":"YAW Jester Bike Rack","artist_first_name":"<string/>","artist_last_name":"YAW","budget":6000,"city":"Reno","location":[-119.815382347,39.5260642555],"state":"NV","street":"148 West Street","year":"2008","type":"Bikerack"}
{"name":"4 Cycle Hitch","artist_first_name":"<string/>","artist_last_name":"Reno Bike Project","budget":3000,"city":"Reno","location":[-119.81294,39.5259],"state":"NV","street":"1st St and Virginia St","year":"2008","type":"Bikerack"}
{"name":"West Street Market Gates","artist_first_name":"Paolo","artist_last_name":"Cividino","budget":12000,"city":"Reno","location":[-119.815382347,39.5260642555],"state":"NV","street":"148 West Street","year":"2009","type":"Security Gates"}
{"name":"Recyclables Container","artist_first_name":"Paolo","artist_last_name":"Cividino","budget":5000,"city":"Reno","location":[-119.815382347,39.5260642555],"state":"NV","street":"148 West Street","year":"2009","type":"Recycle Container"}
{"name":"Dances in Flight","artist_first_name":"Pam","artist_last_name":"Parenti","budget":34346,"city":"Reno","location":[-119.733675,39.422902867408354],"state":"NV","street":"1950 Steamboat Parkway","year":"2009","type":"Sculpture"}
{"name":"Rainbow Trout Tree","artist_first_name":"Eileen","artist_last_name":"Gay","budget":24000,"city":"Reno","location":[-119.835284,39.519159],"state":"NV","street":"1900 Idlewild Dr","year":"2009","type":"Sculpture"}
{"name":"Treespire","artist_first_name":"Tobasco","artist_last_name":"Mills","budget":20000,"city":"Reno","location":[-119.82378540840055,39.53362191546974],"state":"NV","street":"550 University Terrace","year":"2009","type":"Steel Sculpture &amp; Bench"}
{"name":"Art Marker","artist_first_name":"<string/>","artist_last_name":"Cathexis","budget":2000,"city":"Reno","location":[-119.812607,39.526145],"state":"NV","street":"1 E. First Street","year":"1995","type":"Concrete Marker"}
{"name":"Art Marker","artist_first_name":"<string/>","artist_last_name":"Cathexis","budget":2000,"city":"Reno","location":[-119.809072,39.525899],"state":"NV","street":"10 Lake Street","year":"1995","type":"Concrete Marker"}
{"name":"Art Marker","artist_first_name":"<string/>","artist_last_name":"Cathexis","budget":2000,"city":"Reno","location":[-119.820086,39.524031],"state":"NV","street":"528 W 1st St","year":"1995","type":"Concrete Marker"}
{"name":"Art Marker","artist_first_name":"<string/>","artist_last_name":"Cathexis","budget":2000,"city":"Reno","location":[-119.82452,39.521702],"state":"NV","street":"925 Riverside Dr","year":"1995","type":"Concrete Marker"}
{"name":"Art Marker","artist_first_name":"<string/>","artist_last_name":"Cathexis","budget":2000,"city":"Reno","location":[-119.813265195,39.520885881],"state":"NV","street":"160 W Liberty St","year":"1995","type":"Concrete Marker"}
{"name":"Art Marker","artist_first_name":"<string/>","artist_last_name":"Cathexis","budget":2000,"city":"Reno","location":[-119.811522,39.524235],"state":"NV","street":"100 S. Virginia St.","year":"1995","type":"Concrete Marker"}
{"name":"Art Marker","artist_first_name":"<string/>","artist_last_name":"Cathexis","budget":2000,"city":"Reno","location":[-119.812648826,39.5244335485],"state":"NV","street":"17 S. Virginia St","year":"1995","type":"Concrete Marker"}
{"name":"Art Marker","artist_first_name":"<string/>","artist_last_name":"Cathexis","budget":2000,"city":"Reno","location":[-119.81545437287191,39.525055649152264],"state":"NV","street":"200 W. First St","year":"1995","type":"Concrete Marker"}
{"name":"Art Marker","artist_first_name":"<string/>","artist_last_name":"Cathexis","budget":2000,"city":"Reno","location":[-119.812607,39.526145],"state":"NV","street":"1 E. First Street","year":"1995","type":"Concrete Marker"}
{"name":"Art Marker","artist_first_name":"<string/>","artist_last_name":"Cathexis","budget":2000,"city":"Reno","location":[-119.812607,39.526145],"state":"NV","street":"1 E. First Street","year":"1995","type":"Concrete Marker"}
{"name":"Mural","artist_first_name":"<string/>","artist_last_name":"YAW","budget":5000,"city":"Reno","location":[-119.81867787924064,39.52327774919935],"state":"NV","street":"400 Island Ave.","year":"1999","type":"Mural"}
{"name":"\"Greek Legends\"","artist_first_name":"<string/>","artist_last_name":"YAW","budget":5000,"city":"Reno","location":[-119.8135884,39.512977132591644],"state":"NV","street":"475 Monroe St","year":"1999","type":"Mural"}
{"name":"Mural","artist_first_name":"<string/>","artist_last_name":"YAW","budget":5000,"city":"Reno","location":[-119.808909,39.541113],"state":"NV","street":"1301 Valley Rd.","year":"2000","type":"Mural"}
{"name":"Mural","artist_first_name":"John","artist_last_name":"Coleman","budget":20000,"city":"Reno","location":[-119.835284,39.519159],"state":"NV","street":"1900 Idlewild Dr","year":"2003","type":"Mural"}
{"name":"Storytime","artist_first_name":"Larissa","artist_last_name":"Sokolova","budget":2000,"city":"Reno","location":[-119.80899375734055,39.530265377000816],"state":"NV","street":"335 Record Street","year":"2009","type":"Mural"}
{"name":"Island","artist_first_name":"Danae","artist_last_name":"Anderson","budget":3500,"city":"Reno","location":[-119.812607,39.526145],"state":"NV","street":"1 E. First Street","year":"2004","type":"oil on board"}
{"name":"Bodie, 2004","artist_first_name":"Bill","artist_last_name":"Bliss","budget":700,"city":"Reno","location":[-119.812607,39.526145],"state":"NV","street":"1 E. First Street","year":"2004","type":"watercolor on paper, framed"}
{"name":"Bodie Commode (2003)","artist_first_name":"Bill","artist_last_name":"Bliss","budget":350,"city":"Reno","location":[-119.812607,39.526145],"state":"NV","street":"1 E. First Street","year":"2004","type":"watercolor on paper, framed"}
{"name":"Fulstone Barn (2003)","artist_first_name":"Bill","artist_last_name":"Bliss","budget":700,"city":"Reno","location":[-119.812607,39.526145],"state":"NV","street":"1 E. First Street","year":"2004","type":"watercolor on paper, framed"}
{"name":"Urban Lawn Project","artist_first_name":"Dean","artist_last_name":"Burton","budget":2000,"city":"Reno","location":[-119.812607,39.526145],"state":"NV","street":"1 E. First Street","year":"2004","type":"3 photographs: acrylic and aluminum, framed:"}
{"name":"Long Division","artist_first_name":"Catherine","artist_last_name":"Courtenaye","budget":5000,"city":"Reno","location":[-119.812607,39.526145],"state":"NV","street":"1 E. First Street","year":"2004","type":"oil on panel"}
{"name":"Untitled (Fish)","artist_first_name":"Anne","artist_last_name":"Dederer","budget":250,"city":"Reno","location":[-119.812607,39.526145],"state":"NV","street":"1 E. First Street","year":"2004","type":"giclee print mixed media,   framed"}
{"name":"First Storm","artist_first_name":"Robert","artist_last_name":"Desmond","budget":1900,"city":"Reno","location":[-119.812607,39.526145],"state":"NV","street":"1 E. First Street","year":"2004","type":"color print, framed"}
{"name":"High Sierra Twilight","artist_first_name":"Robert","artist_last_name":"Desmond","budget":1900,"city":"Reno","location":[-119.812607,39.526145],"state":"NV","street":"1 E. First Street","year":"2004","type":"color print, framed"}
{"name":"Untitled #4405","artist_first_name":"Laddie John","artist_last_name":"Dill","budget":6000,"city":"Reno","location":[-119.812607,39.526145],"state":"NV","street":"1 E. First Street","year":"2004","type":"concrete, glass and oxides"}
{"name":"Surface 7","artist_first_name":"Russell","artist_last_name":"Dudley","budget":1500,"city":"Reno","location":[-119.812607,39.526145],"state":"NV","street":"1 E. First Street","year":"2004","type":"ultra chrome print, framed"}
{"name":"Arrangement in Red, Green and Gray","artist_first_name":"Ingrid","artist_last_name":"Evans","budget":2400,"city":"Reno","location":[-119.812607,39.526145],"state":"NV","street":"1 E. First Street","year":"2004","type":"acrylic on handmade paper on canvas"}
{"name":"Incursions # 3","artist_first_name":"Ingrid","artist_last_name":"Evans","budget":3800,"city":"Reno","location":[-119.812607,39.526145],"state":"NV","street":"1 E. First Street","year":"2004","type":"acrylic on handmade paper on canvas"}
{"name":"Ascension #1 (Lily)","artist_first_name":"Tom","artist_last_name":"Gilbertson","budget":800,"city":"Reno","location":[-119.812607,39.526145],"state":"NV","street":"1 E. First Street","year":"2004","type":"watercolor on paper, framed"}
{"name":"Procession #2 (For Peggy)","artist_first_name":"Tom","artist_last_name":"Gilbertson","budget":2200,"city":"Reno","location":[-119.812607,39.526145],"state":"NV","street":"1 E. First Street","year":"2004","type":"watercolor and mixed media on paper, framed"}
{"name":"Jan. 1997, Old Reno Arch","artist_first_name":"Peter","artist_last_name":"Goin","budget":2500,"city":"Reno","location":[-119.812607,39.526145],"state":"NV","street":"1 E. First Street","year":"2004","type":"chromogenic development print, framed"}
{"name":"Stillwater National Wildlife Refuge","artist_first_name":"Peter","artist_last_name":"Goin","budget":6000,"city":"Reno","location":[-119.812607,39.526145],"state":"NV","street":"1 E. First Street","year":"2004","type":"chromogenic development print (triptych), framed"}
{"name":"Untitled (Rabbit)","artist_first_name":"Drake","artist_last_name":"Gossi","budget":250,"city":"Reno","location":[-119.812607,39.526145],"state":"NV","street":"1 E. First Street","year":"2004","type":"mixed media on paper, framed"}
{"name":"Remuda #6, IL Ranch, NV","artist_first_name":"Adam","artist_last_name":"Jahiel","budget":3600,"city":"Reno","location":[-119.812607,39.526145],"state":"NV","street":"1 E. First Street","year":"2004","type":"platinum print, 8/15, framed"}
{"name":"Reno 7 - You Are Here","artist_first_name":"Jim","artist_last_name":"McCormick","budget":2800,"city":"Reno","location":[-119.812607,39.526145],"state":"NV","street":"1 E. First Street","year":"2004","type":"mixed media, framed"}
{"name":"Hey Bill, I Erased Gold Hill, Almost","artist_first_name":"Walter","artist_last_name":"McNamara","budget":700,"city":"Reno","location":[-119.812607,39.526145],"state":"NV","street":"1 E. First Street","year":"2004","type":"collage, framed"}
{"name":"Chapter VIII","artist_first_name":"Maurice","artist_last_name":"Nespor","budget":3900,"city":"Reno","location":[-119.812607,39.526145],"state":"NV","street":"1 E. First Street","year":"2004","type":"collage on panel, framed"}
{"name":"Modulation","artist_first_name":"Maurice","artist_last_name":"Nespor","budget":3000,"city":"Reno","location":[-119.812607,39.526145],"state":"NV","street":"1 E. First Street","year":"2004","type":"collage on panel, framed"}
{"name":"1997 Flood, Looking Across Sierra St. Bridge","artist_first_name":"Goin","artist_last_name":"Peter","budget":2500,"city":"Reno","location":[-119.812607,39.526145],"state":"NV","street":"1 E. First Street","year":"2004","type":"chromogenic development  print, framed"}
{"name":"Dog (#52)","artist_first_name":"Fred","artist_last_name":"Reid","budget":1300,"city":"Reno","location":[-119.812607,39.526145],"state":"NV","street":"1 E. First Street","year":"2004","type":"ceramic raku, plexi box and stand"}
{"name":"Perch","artist_first_name":"Michael","artist_last_name":"Sarich","budget":800,"city":"Reno","location":[-119.812607,39.526145],"state":"NV","street":"1 E. First Street","year":"2004","type":"mixed media, framed"}
{"name":"Ladders Cross the Blue Sky in a Wheel of Fire","artist_first_name":"Stephanie","artist_last_name":"Scott","budget":250,"city":"Reno","location":[-119.812607,39.526145],"state":"NV","street":"1 E. First Street","year":"2004","type":"prismacolor and graphite on paper, framed"}
{"name":"Echo View","artist_first_name":"Phyllis","artist_last_name":"Shaffer","budget":1300,"city":"Reno","location":[-119.812607,39.526145],"state":"NV","street":"1 E. First Street","year":"2004","type":"gouache on tinted paper, framed"}
{"name":"Sunset in the Buttermilks","artist_first_name":"Phyllis","artist_last_name":"Shaffer","budget":1300,"city":"Reno","location":[-119.812607,39.526145],"state":"NV","street":"1 E. First Street","year":"2004","type":"gouache on tinted paper, framed"}
{"name":"Upper Truckee, Spring","artist_first_name":"Phyllis","artist_last_name":"Shaffer","budget":1300,"city":"Reno","location":[-119.812607,39.526145],"state":"NV","street":"1 E. First Street","year":"2004","type":"gouache on tinted paper, framed"}
{"name":"View from Tahoe Mountains","artist_first_name":"Phyllis","artist_last_name":"Shaffer","budget":1300,"city":"Reno","location":[-119.812607,39.526145],"state":"NV","street":"1 E. First Street","year":"2004","type":"gouache on tinted paper, framed"}
{"name":"Hope Valley from the Homestead","artist_first_name":"Phyllis","artist_last_name":"Shaffer","budget":6700,"city":"Reno","location":[-119.812607,39.526145],"state":"NV","street":"1 E. First Street","year":"2004","type":"oil on canvas, framed"}
{"name":"Channel","artist_first_name":"James","artist_last_name":"Shay","budget":8100,"city":"Reno","location":[-119.812607,39.526145],"state":"NV","street":"1 E. First Street","year":"2004","type":"casein &amp; prismacolor on board, framed"}
{"name":"The Americans Visit the Orient","artist_first_name":"Mick","artist_last_name":"Sheldon","budget":350,"city":"Reno","location":[-119.812607,39.526145],"state":"NV","street":"1 E. First Street","year":"2004","type":"hand colored woodcut, framed"}
{"name":"Hand","artist_first_name":"Brent","artist_last_name":"Thomas","budget":250,"city":"Reno","location":[-119.812607,39.526145],"state":"NV","street":"1 E. First Street","year":"2004","type":"giclee print"}
{"name":"Great Basin Circle (Two Nevada Cultures)","artist_first_name":"Larry","artist_last_name":"Williamson","budget":3000,"city":"Reno","location":[-119.812607,39.526145],"state":"NV","street":"1 E. First Street","year":"2004","type":"mixed media"}
{"name":"Reno Sunset","artist_first_name":"Jim","artist_last_name":"Zlokovich","budget":650,"city":"Reno","location":[-119.812607,39.526145],"state":"NV","street":"1 E. First Street","year":"2004","type":"pastel on paper, framed"}
{"name":"Zoophyte","artist_first_name":"Rebekah","artist_last_name":"Bogard","budget":3750,"city":"Reno","location":[-119.812607,39.526145],"state":"NV","street":"1 E. First Street","year":"2005","type":"earthenware, stand and plexiglass box"}
{"name":"Mining Road","artist_first_name":"Jean","artist_last_name":"LeGassick","budget":3300,"city":"Reno","location":[-119.812607,39.526145],"state":"NV","street":"1 E. First Street","year":"2005","type":"oil on canvas mounted on board, framed"}
{"name":"Still Life with Apples","artist_first_name":"Sharon","artist_last_name":"Maczko","budget":2000,"city":"Reno","location":[-119.812607,39.526145],"state":"NV","street":"1 E. First Street","year":"2005","type":"watercolor on paper, framed"}
{"name":"Letter VIII","artist_first_name":"Jain","artist_last_name":"McClain","budget":550,"city":"Reno","location":[-119.812607,39.526145],"state":"NV","street":"1 E. First Street","year":"2005","type":"mixed media, framed"}
{"name":"Letter XIV","artist_first_name":"Jain","artist_last_name":"McClain","budget":550,"city":"Reno","location":[-119.812607,39.526145],"state":"NV","street":"1 E. First Street","year":"2005","type":"mixed media, framed"}
{"name":"Letter XV","artist_first_name":"Jain","artist_last_name":"McClain","budget":550,"city":"Reno","location":[-119.812607,39.526145],"state":"NV","street":"1 E. First Street","year":"2005","type":"mixed media, framed"}
{"name":"Letter XIX","artist_first_name":"Jain","artist_last_name":"McClain","budget":550,"city":"Reno","location":[-119.812607,39.526145],"state":"NV","street":"1 E. First Street","year":"2005","type":"mixed media, framed"}
{"name":"Busted in Coaldale","artist_first_name":"Jeff","artist_last_name":"Nicholson","budget":2700,"city":"Reno","location":[-119.812607,39.526145],"state":"NV","street":"1 E. First Street","year":"2005","type":"watercolor, framed"}
{"name":"Old Car Hwt 50, NV Series","artist_first_name":"Nolan","artist_last_name":"Preece","budget":500,"city":"Reno","location":[-119.812607,39.526145],"state":"NV","street":"1 E. First Street","year":"2005","type":"silver gelatin print, framed"}
{"name":"August Storm, NV Series","artist_first_name":"Nolan","artist_last_name":"Preece","budget":500,"city":"Reno","location":[-119.812607,39.526145],"state":"NV","street":"1 E. First Street","year":"2005","type":"silver gelatin print, framed"}
{"name":"Black Willows, NV Series","artist_first_name":"Nolan","artist_last_name":"Preece","budget":500,"city":"Reno","location":[-119.812607,39.526145],"state":"NV","street":"1 E. First Street","year":"2005","type":"silver gelatin print, framed"}
{"name":"Nolangrams #014","artist_first_name":"Nolan","artist_last_name":"Preece","budget":500,"city":"Reno","location":[-119.812607,39.526145],"state":"NV","street":"1 E. First Street","year":"2005","type":"silver gelatin print, framed"}
{"name":"Nolangrams #021","artist_first_name":"Nolan","artist_last_name":"Preece","budget":500,"city":"Reno","location":[-119.812607,39.526145],"state":"NV","street":"1 E. First Street","year":"2005","type":"silver gelatin print, framed"}
{"name":"Nolangrams #031","artist_first_name":"Nolan","artist_last_name":"Preece","budget":500,"city":"Reno","location":[-119.812607,39.526145],"state":"NV","street":"1 E. First Street","year":"2005","type":"silver gelatin print, framed"}
{"name":"Wall  #6 Virginia City Blacksmith Shop","artist_first_name":"Nolan","artist_last_name":"Preece","budget":1500,"city":"Reno","location":[-119.812607,39.526145],"state":"NV","street":"1 E. First Street","year":"2005","type":"silver gelatin print with hand-applied color, framed"}
{"name":"CCS Portrait","artist_first_name":"Jeff","artist_last_name":"Ross","budget":1879,"city":"Reno","location":[-119.812607,39.526145],"state":"NV","street":"1 E. First Street","year":"2009","type":"silver gelatin print, framed"}
{"name":"Safety First","artist_first_name":"Deon","artist_last_name":"Reynolds","budget":300,"city":"Reno","location":[-119.82452,39.521702],"state":"NV","street":"925 Riverside Dr","year":"2008","type":"Photograph"}
{"name":"<string/>","artist_first_name":"Erik","artist_last_name":"Holland","budget":300,"city":"Reno","location":[-119.835284,39.519159],"state":"NV","street":"1900 Idlewild Dr","year":"2007","type":"painting"}
{"name":"Nevada Mosaic","artist_first_name":"Sarah","artist_last_name":"Sweetwater","budget":0,"city":"Reno","location":[-119.812607,39.526145],"state":"NV","street":"1 E. First Street","year":"1990","type":"mosaic"}
{"name":"Reeds in a Pond","artist_first_name":"Antonia","artist_last_name":"Lowden","budget":0,"city":"Reno","location":[-119.812607,39.526145],"state":"NV","street":"1 E. First Street","year":"2005","type":"weaving"}
{"name":"Untitled","artist_first_name":"Jan","artist_last_name":"McDole","budget":0,"city":"Reno","location":[-119.812607,39.526145],"state":"NV","street":"1 E. First Street","year":"1990","type":"weaving"}
{"name":"Reno","artist_first_name":"Ali","artist_last_name":"Sullivan","budget":600,"city":"Reno","location":[-119.815382347,39.5260642555],"state":"NV","street":"148 West Street","year":"2009","type":"Ceramic Mural"}
